$GPRMC,083535.647,A,3541.2587,N,13949.6635,E,0.36,216.40,200810,,,A*67
$GPRMC,083545.622,A,3541.2538,N,13949.6541,E,0.54,326.16,200810,,,A*62
$GPRMC,083554.679,A,3541.2544,N,13949.6474,E,0.80,108.02,200810,,,A*62
$GPRMC,083559.662,A,3541.2387,N,13949.6487,E,0.35,62.91,200810,,,A*59
$GPRMC,083604.642,A,3541.2561,N,13949.6568,E,0.12,117.50,200810,,,A*65
$GPRMC,083608.612,A,3541.2448,N,13949.6597,E,0.00,,200810,,,A*79
$GPRMC,083612.648,A,3541.2555,N,13949.6690,E,0.00,,200810,,,A*74
$GPRMC,083617.685,A,3541.2540,N,13949.6639,E,0.22,299.58,200810,,,A*66
$GPRMC,083622.662,A,3541.2599,N,13949.6572,E,0.49,260.99,200810,,,A*67
$GPRMC,083627.628,A,3541.2478,N,13949.6641,E,0.84,210.40,200810,,,A*63
$GPRMC,083631.587,A,3541.2522,N,13949.6591,E,1.02,83.73,200810,,,A*55
$GPRMC,083635.648,A,3541.2484,N,13949.6760,E,0.00,,200810,,,A*72
$GPRMC,083641.680,A,3541.2439,N,13949.6640,E,1.02,80.10,200810,,,A*54
$GPRMC,083645.668,A,3541.2383,N,13949.7225,E,0.00,,200810,,,A*72
$GPRMC,083650.703,A,3541.2536,N,13949.6943,E,1.98,256.03,200810,,,A*64
$GPRMC,083654.682,A,3541.2484,N,13949.6750,E,0.00,,200810,,,A*70
$GPRMC,083659.718,A,3541.2484,N,13949.6622,E,0.93,117.32,200810,,,A*69
$GPRMC,083703.701,A,3541.2447,N,13949.6525,E,0.00,,200810,,,A*76
$GPRMC,083708.734,A,3541.2525,N,13949.6649,E,1.29,246.64,200810,,,A*61
$GPRMC,083712.717,A,3541.2483,N,13949.6580,E,0.00,,200810,,,A*76
$GPRMC,083716.758,A,3541.2557,N,13949.6921,E,0.00,,200810,,,A*76
$GPRMC,083724.812,A,3541.2573,N,13949.6631,E,0.49,239.14,200810,,,A*60
$GPRMC,083730.778,A,3541.2557,N,13949.6504,E,0.43,227.11,200810,,,A*65
$GPRMC,083734.770,A,3541.2507,N,13949.6747,E,0.00,,200810,,,A*77
$GPRMC,083738.808,A,3541.2522,N,13949.6805,E,0.00,,200810,,,A*75
$GPRMC,083744.840,A,3541.2543,N,13949.6603,E,0.32,215.11,200810,,,A*64
$GPRMC,083748.826,A,3541.2340,N,13949.7107,E,0.00,,200810,,,A*76
$GPRMC,083752.865,A,3541.2470,N,13949.6804,E,0.00,,200810,,,A*75
$GPRMC,083757.898,A,3541.2542,N,13949.6800,E,1.35,220.90,200810,,,A*66
$GPRMC,083801.881,A,3541.2559,N,13949.6589,E,0.00,,200810,,,A*74
$GPRMC,083810.913,A,3541.2613,N,13949.6498,E,4.92,201.71,200810,,,A*66
$GPRMC,083820.425,A,3541.2559,N,13949.6576,E,0.32,234.94,200810,,,A*62
$GPRMC,083942.278,A,3541.2568,N,13949.6579,E,0.54,90.13,200810,,,A*57
$GPRMC,083947.312,A,3541.2565,N,13949.6657,E,0.00,,200810,,,A*79
$GPRMC,102433.290,A,3541.2305,N,13949.7040,E,4.93,84.78,200810,,,A*56
$GPRMC,225633.256,A,3541.2254,N,13949.7136,E,0.32,217.36,220810,,,A*62
$GPRMC,225636.251,A,3541.2218,N,13949.7239,E,0.89,264.00,220810,,,A*65
$GPRMC,225639.369,A,3541.2320,N,13949.7395,E,1.08,276.07,220810,,,A*61
$GPRMC,225642.488,A,3541.2231,N,13949.7166,E,0.35,282.92,220810,,,A*62
$GPRMC,225645.612,A,3541.2326,N,13949.7252,E,0.66,244.09,220810,,,A*69
$GPRMC,225648.723,A,3541.2361,N,13949.7076,E,1.08,104.03,220810,,,A*64
$GPRMC,225652.874,A,3541.2280,N,13949.7154,E,0.18,146.87,220810,,,A*67
$GPRMC,225655.838,A,3541.2254,N,13949.7136,E,1.55,106.65,220810,,,A*65
$GPRMC,225701.974,A,3541.2278,N,13949.7269,E,0.23,217.79,220810,,,A*65
$GPRMC,225704.967,A,3541.2342,N,13949.7049,E,0.76,292.91,220810,,,A*61
$GPRMC,225708.088,A,3541.2252,N,13949.7133,E,0.22,129.52,220810,,,A*64
$GPRMC,225713.202,A,3541.2243,N,13949.6986,E,0.35,122.39,220810,,,A*69
$GPRMC,225716.185,A,3541.2257,N,13949.6900,E,0.33,261.89,220810,,,A*62
$GPRMC,225719.308,A,3541.2240,N,13949.7217,E,0.21,28.80,220810,,,A*55
$GPRMC,225722.447,A,3541.2293,N,13949.7426,E,1.48,282.42,220810,,,A*69
$GPRMC,225726.567,A,3541.2313,N,13949.7039,E,0.20,110.49,220810,,,A*61
$GPRMC,225729.551,A,3541.2235,N,13949.7275,E,0.02,,220810,,,A*77
$GPRMC,225733.659,A,3541.2283,N,13949.7261,E,0.69,252.81,220810,,,A*60
$GPRMC,225736.644,A,3541.2280,N,13949.7372,E,0.08,28.69,220810,,,A*57
$GPRMC,225741.758,A,3541.2350,N,13949.6851,E,0.46,119.84,220810,,,A*66
$GPRMC,225744.748,A,3541.2327,N,13949.7238,E,1.00,151.50,220810,,,A*60
$GPRMC,230326.090,A,3541.2666,N,13949.7126,E,1.52,299.43,220810,,,A*68
$GPRMC,230332.347,A,3541.2636,N,13949.7070,E,1.95,276.17,220810,,,A*68
$GPRMC,230335.824,A,3541.2661,N,13949.7129,E,2.20,262.22,220810,,,A*60
$GPRMC,230338.388,A,3541.2526,N,13949.7224,E,0.00,,220810,,,A*76
$GPRMC,230341.322,A,3541.2544,N,13949.7173,E,1.11,241.03,220810,,,A*66
$GPRMC,230344.397,A,3541.2534,N,13949.7302,E,0.88,290.73,220810,,,A*64
$GPRMC,230348.511,A,3541.2551,N,13949.7149,E,2.06,264.58,220810,,,A*68
$GPRMC,230350.900,A,3541.2597,N,13949.6921,E,0.00,,220810,,,A*77
$GPRMC,230353.740,A,3541.2567,N,13949.7114,E,2.25,270.41,220810,,,A*65
$GPRMC,230356.548,A,3541.2585,N,13949.6954,E,0.00,,220810,,,A*70
$GPRMC,230359.590,A,3541.2561,N,13949.6917,E,1.75,280.19,220810,,,A*68
$GPRMC,230402.147,A,3541.2600,N,13949.6828,E,0.00,,220810,,,A*79
$GPRMC,230405.094,A,3541.2626,N,13949.6856,E,0.84,272.95,220810,,,A*65
$GPRMC,230408.162,A,3541.2618,N,13949.6985,E,1.12,5.30,220810,,,A*61
$GPRMC,230411.579,A,3541.2490,N,13949.6925,E,1.52,282.01,220810,,,A*64
$GPRMC,230416.647,A,3541.2635,N,13949.6911,E,2.00,312.80,220810,,,A*62
$GPRMC,230421.023,A,3541.2632,N,13949.6892,E,2.20,291.08,220810,,,A*67
$GPRMC,230423.418,A,3541.2690,N,13949.6820,E,0.00,,220810,,,A*74
$GPRMC,230426.454,A,3541.2605,N,13949.6519,E,3.09,278.19,220810,,,A*63
$GPRMC,230430.565,A,3541.2615,N,13949.6835,E,2.05,278.45,220810,,,A*61
$GPRMC,230433.528,A,3541.2583,N,13949.6878,E,1.51,288.11,220810,,,A*62
$GPRMC,230438.641,A,3541.2641,N,13949.6850,E,2.10,287.95,220810,,,A*67
$GPRMC,230449.620,A,3541.2872,N,13949.6793,E,2.46,320.97,220810,,,A*65
$GPRMC,230502.843,A,3541.2948,N,13949.6955,E,3.32,305.73,220810,,,A*63
$GPRMC,230517.114,A,3541.3042,N,13949.6827,E,2.63,227.75,220810,,,A*68
$GPRMC,230530.292,A,3541.3343,N,13949.6882,E,1.88,294.57,220810,,,A*63
$GPRMC,230534.363,A,3541.3357,N,13949.6859,E,1.17,288.72,220810,,,A*67
$GPRMC,230539.414,A,3541.3468,N,13949.6890,E,1.84,340.79,220810,,,A*67
$GPRMC,230543.404,A,3541.3488,N,13949.6868,E,2.37,255.43,220810,,,A*65
$GPRMC,230547.469,A,3541.3465,N,13949.6728,E,2.16,233.69,220810,,,A*69
$GPRMC,230549.861,A,3541.3084,N,13949.6411,E,0.00,,220810,,,A*77
$GPRMC,230552.496,A,3541.3054,N,13949.6501,E,1.15,270.20,220810,,,A*68
$GPRMC,230555.877,A,3541.2892,N,13949.6508,E,1.70,258.26,220810,,,A*69
$GPRMC,230559.190,A,3541.3029,N,13949.6390,E,1.62,263.48,220810,,,A*68
$GPRMC,230601.996,A,3541.2973,N,13949.6499,E,0.00,,220810,,,A*71
$GPRMC,230605.035,A,3541.2946,N,13949.6399,E,0.70,291.41,220810,,,A*62
$GPRMC,230607.563,A,3541.3024,N,13949.6219,E,0.00,,220810,,,A*75

